[
  {
    "id": "burj_khalifa",
    "name": "Burj Khalifa",
    "category": "Attractions",
    "rating": 4.8,
    "priceTag": "Paid",
    "lat": 25.197197,
    "lng": 55.2743764,
    "coverUrl": "https://picsum.photos/seed/burj/1200/800",
    "description": "World's tallest building with observation decks offering stunning city views.",
    "openHours": "Daily 10:00–23:00",
    "tags": ["View", "Iconic", "Skyscraper"]
  },
  {
    "id": "dubai_mall",
    "name": "The Dubai Mall",
    "category": "Shopping",
    "rating": 4.6,
    "priceTag": "Free",
    "lat": 25.197525,
    "lng": 55.279619,
    "coverUrl": "https://picsum.photos/seed/mall/1200/800",
    "description": "Huge mall with aquarium, ice rink, and diverse dining options.",
    "openHours": "Sun–Thu 10:00–23:00, Fri–Sat 10:00–00:00",
    "tags": ["Family", "Shopping", "Entertainment"]
  },
  {
    "id": "palm_jumeirah",
    "name": "Palm Jumeirah",
    "category": "Attractions",
    "rating": 4.7,
    "priceTag": "Free",
    "lat": 25.110244,
    "lng": 55.139483,
    "coverUrl": "https://picsum.photos/seed/palm/1200/800",
    "description": "Artificial archipelago offering luxury resorts, beaches, and stunning views.",
    "openHours": "24/7",
    "tags": ["Beach", "Luxury", "Iconic"]
  },
  {
    "id": "dubai_marina",
    "name": "Dubai Marina",
    "category": "Attractions",
    "rating": 4.5,
    "priceTag": "Free",
    "lat": 25.076303,
    "lng": 55.132409,
    "coverUrl": "https://picsum.photos/seed/marina/1200/800",
    "description": "Modern waterfront district with skyscrapers, dining, and yacht tours.",
    "openHours": "24/7",
    "tags": ["View", "Walking", "Modern"]
  },
  {
    "id": "dubai_fountain",
    "name": "Dubai Fountain",
    "category": "Attractions",
    "rating": 4.8,
    "priceTag": "Free",
    "lat": 25.197136,
    "lng": 55.279371,
    "coverUrl": "https://picsum.photos/seed/fountain/1200/800",
    "description": "World's largest choreographed fountain system with light and music shows.",
    "openHours": "Daily 18:00–23:00 (30min intervals)",
    "tags": ["Free", "Show", "Night"]
  },
  {
    "id": "dubai_museum",
    "name": "Dubai Museum",
    "category": "Cultural",
    "rating": 4.3,
    "priceTag": "Paid",
    "lat": 25.263165,
    "lng": 55.297287,
    "coverUrl": "https://picsum.photos/seed/museum/1200/800",
    "description": "Historical museum showcasing Dubai's heritage and transformation.",
    "openHours": "Sat–Thu 08:30–20:30, Fri 14:30–20:30",
    "tags": ["History", "Cultural", "Educational"]
  },
  {
    "id": "miracle_garden",
    "name": "Dubai Miracle Garden",
    "category": "Attractions",
    "rating": 4.4,
    "priceTag": "Paid",
    "lat": 25.055317,
    "lng": 55.240999,
    "coverUrl": "https://picsum.photos/seed/garden/1200/800",
    "description": "World's largest natural flower garden with stunning floral arrangements.",
    "openHours": "Daily 09:00–21:00 (Seasonal)",
    "tags": ["Nature", "Flowers", "Photography"]
  },
  {
    "id": "global_village",
    "name": "Global Village",
    "category": "Entertainment",
    "rating": 4.5,
    "priceTag": "Paid",
    "lat": 25.069125,
    "lng": 55.313374,
    "coverUrl": "https://picsum.photos/seed/global/1200/800",
    "description": "Cultural entertainment park with pavilions from around the world.",
    "openHours": "Sat–Wed 16:00–00:00, Thu–Fri 16:00–01:00 (Seasonal)",
    "tags": ["Cultural", "Shopping", "Entertainment"]
  },
  {
    "id": "aquaventure",
    "name": "Aquaventure Waterpark",
    "category": "Entertainment",
    "rating": 4.7,
    "priceTag": "Paid",
    "lat": 25.136246,
    "lng": 55.185297,
    "coverUrl": "https://picsum.photos/seed/aquaventure/1200/800",
    "description": "Award-winning waterpark at Atlantis with thrilling slides and marine experiences.",
    "openHours": "Daily 10:00–18:00",
    "tags": ["Waterpark", "Family", "Thrilling"]
  },
  {
    "id": "dubai_opera",
    "name": "Dubai Opera",
    "category": "Cultural",
    "rating": 4.6,
    "priceTag": "Paid",
    "lat": 25.202594,
    "lng": 55.279184,
    "coverUrl": "https://picsum.photos/seed/opera/1200/800",
    "description": "World-class performing arts venue with diverse cultural performances.",
    "openHours": "Varies by performance",
    "tags": ["Cultural", "Arts", "Performance"]
  },
  {
    "id": "kite_beach",
    "name": "Kite Beach",
    "category": "Beach",
    "rating": 4.4,
    "priceTag": "Free",
    "lat": 25.201594,
    "lng": 55.258354,
    "coverUrl": "https://picsum.photos/seed/kite/1200/800",
    "description": "Popular beach for water sports, with views of Burj Al Arab.",
    "openHours": "24/7",
    "tags": ["Beach", "Sports", "Free"]
  },
  {
    "id": "dubai_frame",
    "name": "Dubai Frame",
    "category": "Attractions",
    "rating": 4.2,
    "priceTag": "Paid",
    "lat": 25.234568,
    "lng": 55.312345,
    "coverUrl": "https://picsum.photos/seed/frame/1200/800",
    "description": "Iconic structure bridging old and new Dubai with panoramic views.",
    "openHours": "Daily 09:00–21:00",
    "tags": ["View", "Iconic", "Historical"]
  }
]